{"config": {"view": {"continuousWidth": 300, "continuousHeight": 300}}, "vconcat": [{"layer": [{"data": {"url": "https://cdn.jsdelivr.net/npm/vega-datasets@v1.29.0/data/us-10m.json", "format": {"feature": "states", "type": "topojson"}}, "mark": {"type": "geoshape", "stroke": "#BFA24B"}, "encoding": {"color": {"field": "range", "legend": {"labelFontSize": 12, "offset": -200, "orient": "left"}, "scale": {"domain": ["<=4999", "5000-9999", "10000-49999", ">=50000"], "range": ["#F2E0D0", "#F5D097", "#BF4C41", "#732C2C"]}, "title": "Total Int'l Students by States", "type": "nominal"}, "tooltip": [{"field": "States", "type": "nominal"}, {"field": "range", "type": "nominal"}]}, "projection": {"type": "albersUsa"}, "title": "U.S. Hosting International Students by States 2022-2023", "transform": [{"lookup": "id", "from": {"data": {"name": "data-c5502f0cfac828769c862c155c545817"}, "key": "id", "fields": ["States", "State_Abbreviation", "id", "range"]}}]}, {"data": {"name": "data-682dba940c744a61e7619db60fe0101e"}, "mark": {"type": "circle", "color": "#06373A", "size": 70, "stroke": "#F2E0D0"}, "encoding": {"latitude": {"field": "Lat", "type": "quantitative"}, "longitude": {"field": "Long", "type": "quantitative"}, "opacity": {"condition": {"param": "param_3", "value": 1}, "value": 0.4}, "tooltip": [{"field": "Institutions", "type": "nominal"}, {"field": "Intl_Students", "type": "quantitative"}]}, "name": "view_5"}], "height": 400, "width": 650}, {"layer": [{"mark": {"type": "bar", "color": "#BFA24B"}, "encoding": {"opacity": {"condition": {"param": "param_3", "value": 1}, "value": 0.2}, "tooltip": [{"field": "Institutions", "type": "nominal"}, {"field": "Intl_Students", "type": "quantitative"}], "x": {"field": "Intl_Students", "title": "Number of International Students", "type": "quantitative"}, "y": {"axis": null, "field": "Institutions", "type": "nominal"}}, "name": "view_6", "title": "International Students by Top 25 Institution in U.S."}, {"mark": {"type": "text", "align": "right", "baseline": "middle", "dx": -330}, "encoding": {"text": {"field": "Institutions", "type": "nominal"}, "y": {"field": "Institutions", "type": "nominal"}}}], "data": {"name": "data-cb68c4780a322c561bc566a63e3e7814"}, "height": 400, "width": 650}], "params": [{"name": "param_3", "select": {"type": "point", "fields": ["Institutions"]}, "views": ["view_5", "view_6"]}], "spacing": 30, "$schema": "https://vega.github.io/schema/vega-lite/v5.15.1.json", "datasets": {"data-c5502f0cfac828769c862c155c545817": [{"States": "Alabama", "State_Abbreviation": "AL", "id": 1, "range": "5000-9999"}, {"States": "Alaska", "State_Abbreviation": "AK", "id": 2, "range": "<=4999"}, {"States": "Arizona", "State_Abbreviation": "AZ", "id": 4, "range": "10000-49999"}, {"States": "Arkansas", "State_Abbreviation": "AR", "id": 5, "range": "5000-9999"}, {"States": "California", "State_Abbreviation": "CA", "id": 6, "range": ">=50000"}, {"States": "Colorado", "State_Abbreviation": "CO", "id": 8, "range": "5000-9999"}, {"States": "Connecticut", "State_Abbreviation": "CT", "id": 9, "range": "10000-49999"}, {"States": "Delaware", "State_Abbreviation": "DE", "id": 10, "range": "<=4999"}, {"States": "District Of Columbia", "State_Abbreviation": "DC", "id": 11, "range": "10000-49999"}, {"States": "Florida", "State_Abbreviation": "FL", "id": 12, "range": "10000-49999"}, {"States": "Georgia", "State_Abbreviation": "GA", "id": 13, "range": "10000-49999"}, {"States": "Hawaii", "State_Abbreviation": "HI", "id": 15, "range": "<=4999"}, {"States": "Idaho", "State_Abbreviation": "ID", "id": 16, "range": "<=4999"}, {"States": "Illinois", "State_Abbreviation": "IL", "id": 17, "range": ">=50000"}, {"States": "Indiana", "State_Abbreviation": "IN", "id": 18, "range": "10000-49999"}, {"States": "Iowa", "State_Abbreviation": "IA", "id": 19, "range": "5000-9999"}, {"States": "Kansas", "State_Abbreviation": "KS", "id": 20, "range": "5000-9999"}, {"States": "Kentucky", "State_Abbreviation": "KY", "id": 21, "range": "5000-9999"}, {"States": "Louisiana", "State_Abbreviation": "LA", "id": 22, "range": "5000-9999"}, {"States": "Maine", "State_Abbreviation": "ME", "id": 23, "range": "<=4999"}, {"States": "Maryland", "State_Abbreviation": "MD", "id": 24, "range": "10000-49999"}, {"States": "Massachusetts", "State_Abbreviation": "MA", "id": 25, "range": ">=50000"}, {"States": "Michigan", "State_Abbreviation": "MI", "id": 26, "range": "10000-49999"}, {"States": "Minnesota", "State_Abbreviation": "MN", "id": 27, "range": "10000-49999"}, {"States": "Mississippi", "State_Abbreviation": "MS", "id": 28, "range": "<=4999"}, {"States": "Missouri", "State_Abbreviation": "MO", "id": 29, "range": "10000-49999"}, {"States": "Montana", "State_Abbreviation": "MT", "id": 30, "range": "<=4999"}, {"States": "Nebraska", "State_Abbreviation": "NE", "id": 31, "range": "<=4999"}, {"States": "Nevada", "State_Abbreviation": "NV", "id": 32, "range": "<=4999"}, {"States": "New Hampshire", "State_Abbreviation": "NH", "id": 33, "range": "<=4999"}, {"States": "New Jersey", "State_Abbreviation": "NJ", "id": 34, "range": "10000-49999"}, {"States": "New Mexico", "State_Abbreviation": "NM", "id": 35, "range": "<=4999"}, {"States": "New York", "State_Abbreviation": "NY", "id": 36, "range": ">=50000"}, {"States": "North Carolina", "State_Abbreviation": "NC", "id": 37, "range": "10000-49999"}, {"States": "North Dakota", "State_Abbreviation": "ND", "id": 38, "range": "<=4999"}, {"States": "Ohio", "State_Abbreviation": "OH", "id": 39, "range": "10000-49999"}, {"States": "Oklahoma", "State_Abbreviation": "OK", "id": 40, "range": "5000-9999"}, {"States": "Oregon", "State_Abbreviation": "OR", "id": 41, "range": "5000-9999"}, {"States": "Pennsylvania", "State_Abbreviation": "PA", "id": 42, "range": "10000-49999"}, {"States": "Rhode Island", "State_Abbreviation": "RI", "id": 44, "range": "<=4999"}, {"States": "South Carolina", "State_Abbreviation": "SC", "id": 45, "range": "5000-9999"}, {"States": "South Dakota", "State_Abbreviation": "SD", "id": 46, "range": "<=4999"}, {"States": "Tennessee", "State_Abbreviation": "TN", "id": 47, "range": "5000-9999"}, {"States": "Texas", "State_Abbreviation": "TX", "id": 48, "range": ">=50000"}, {"States": "Utah", "State_Abbreviation": "UT", "id": 49, "range": "10000-49999"}, {"States": "Vermont", "State_Abbreviation": "VT", "id": 50, "range": "<=4999"}, {"States": "Virginia", "State_Abbreviation": "VA", "id": 51, "range": "10000-49999"}, {"States": "Washington", "State_Abbreviation": "WA", "id": 53, "range": "10000-49999"}, {"States": "West Virginia", "State_Abbreviation": "WV", "id": 54, "range": "<=4999"}, {"States": "Wisconsin", "State_Abbreviation": "WI", "id": 55, "range": "10000-49999"}, {"States": "Wyoming", "State_Abbreviation": "WY", "id": 56, "range": "<=4999"}, {"States": "American Samoa", "State_Abbreviation": "AS", "id": 60, "range": "<=4999"}, {"States": "Guam", "State_Abbreviation": "GU", "id": 66, "range": "<=4999"}, {"States": "Northern Mariana Islands", "State_Abbreviation": "MP", "id": 69, "range": "<=4999"}, {"States": "Puerto Rico", "State_Abbreviation": "PR", "id": 72, "range": "<=4999"}, {"States": "U.S. Minor Outlying Islands", "State_Abbreviation": "UM", "id": 74, "range": "<=4999"}, {"States": "U.S. Virgin Islands", "State_Abbreviation": "VI", "id": 78, "range": "<=4999"}], "data-682dba940c744a61e7619db60fe0101e": [{"Rank": 1, "Institutions": "New York University", "Lat": 40.729513, "Long": -73.996461, "City": "New York", "State": "New York", "State_Abbreviation": "NY", "id": 36, "Intl_Students": 24496}, {"Rank": 2, "Institutions": "Northeastern University - Boston", "Lat": 42.339806, "Long": -71.089171, "City": "Boston", "State": "Massachusetts", "State_Abbreviation": "MA", "id": 25, "Intl_Students": 20637}, {"Rank": 3, "Institutions": "Columbia University", "Lat": 40.807536, "Long": -73.962573, "City": "New York", "State": "New York", "State_Abbreviation": "NY", "id": 36, "Intl_Students": 19001}, {"Rank": 4, "Institutions": "Arizona State University - Campus Immersion", "Lat": 33.4167, "Long": -111.9346, "City": "Tempe", "State": "Arizona", "State_Abbreviation": "AZ", "id": 4, "Intl_Students": 17981}, {"Rank": 5, "Institutions": "University of Southern California", "Lat": 34.0219, "Long": -118.4814, "City": "Los Angeles", "State": "California", "State_Abbreviation": "CA", "id": 6, "Intl_Students": 17264}, {"Rank": 6, "Institutions": "University of Illinois - Urbana-Champaign", "Lat": 40.101952, "Long": -88.227161, "City": "Champaign", "State": "Illinois", "State_Abbreviation": "IL", "id": 17, "Intl_Students": 14680}, {"Rank": 7, "Institutions": "Boston University", "Lat": 42.3505, "Long": -71.1054, "City": "Boston", "State": "Massachusetts", "State_Abbreviation": "MA", "id": 25, "Intl_Students": 13281}, {"Rank": 8, "Institutions": "Purdue University - West Lafayette", "Lat": 40.423705, "Long": -86.921194, "City": "West Lafayette", "State": "Indiana", "State_Abbreviation": "IN", "id": 18, "Intl_Students": 11872}, {"Rank": 9, "Institutions": "University of California - Berkeley", "Lat": 37.8719, "Long": -122.2585, "City": "Berkeley", "State": "California", "State_Abbreviation": "CA", "id": 6, "Intl_Students": 11719}, {"Rank": 10, "Institutions": "University of California - San Diego", "Lat": 32.8801, "Long": -117.234, "City": "La Jolla", "State": "California", "State_Abbreviation": "CA", "id": 6, "Intl_Students": 10431}, {"Rank": 11, "Institutions": "University of Michigan - Ann Arbor", "Lat": 42.278, "Long": -83.7382, "City": "Ann Arbor", "State": "Michigan", "State_Abbreviation": "MI", "id": 26, "Intl_Students": 10411}, {"Rank": 12, "Institutions": "University of Washington", "Lat": 47.6553, "Long": -122.3035, "City": "Seattle", "State": "Washington", "State_Abbreviation": "WA", "id": 53, "Intl_Students": 10198}, {"Rank": 13, "Institutions": "University of California - Los Angeles", "Lat": 34.0689, "Long": -118.4452, "City": "Los Angeles", "State": "California", "State_Abbreviation": "CA", "id": 6, "Intl_Students": 9725}, {"Rank": 14, "Institutions": "University of Texas - Dallas", "Lat": 32.9866, "Long": -96.7515, "City": "Richardson", "State": "Texas", "State_Abbreviation": "TX", "id": 48, "Intl_Students": 9582}, {"Rank": 15, "Institutions": "Johns Hopkins University", "Lat": 39.3308, "Long": -76.6205, "City": "Baltimore", "State": "Maryland", "State_Abbreviation": "MD", "id": 24, "Intl_Students": 9322}, {"Rank": 16, "Institutions": "Pennsylvania State University - University Park", "Lat": 40.7982, "Long": -77.8599, "City": "University Park", "State": "Pennsylvania", "State_Abbreviation": "PA", "id": 42, "Intl_Students": 9161}, {"Rank": 17, "Institutions": "Carnegie Mellon University", "Lat": 40.4432, "Long": -79.9435, "City": "Pittsburgh", "State": "Pennsylvania", "State_Abbreviation": "PA", "id": 42, "Intl_Students": 9009}, {"Rank": 18, "Institutions": "University of California - Irvine", "Lat": 33.6405, "Long": -117.8443, "City": "Irvine", "State": "California", "State_Abbreviation": "CA", "id": 6, "Intl_Students": 8984}, {"Rank": 19, "Institutions": "University of Pennsylvania", "Lat": 39.9526, "Long": -75.1652, "City": "Philadelphia", "State": "Pennsylvania", "State_Abbreviation": "PA", "id": 42, "Intl_Students": 8614}, {"Rank": 20, "Institutions": "University of Wisconsin - Madison", "Lat": 43.0751, "Long": -89.4042, "City": "Massachusettsdison", "State": "Wisconsin", "State_Abbreviation": "WI", "id": 55, "Intl_Students": 8567}, {"Rank": 21, "Institutions": "Cornell University", "Lat": 42.4472, "Long": -76.4831, "City": "IthaCalifornia", "State": "New York", "State_Abbreviation": "NY", "id": 36, "Intl_Students": 8403}, {"Rank": 22, "Institutions": "University of North Texas", "Lat": 33.2148, "Long": -97.1331, "City": "Denton", "State": "Texas", "State_Abbreviation": "TX", "id": 48, "Intl_Students": 8200}, {"Rank": 23, "Institutions": "SUNew York University at Buffalo", "Lat": 43.0006, "Long": -78.7877, "City": "Buffalo", "State": "New York", "State_Abbreviation": "NY", "id": 36, "Intl_Students": 7696}, {"Rank": 24, "Institutions": "Georgia Institute of Technology", "Lat": 33.7756, "Long": -84.3963, "City": "Atlanta", "State": "Georgia", "State_Abbreviation": "GA", "id": 13, "Intl_Students": 7671}, {"Rank": 25, "Institutions": "University of California - Davis", "Lat": 38.5382, "Long": -121.7617, "City": "Davis", "State": "California", "State_Abbreviation": "CA", "id": 6, "Intl_Students": 7621}], "data-cb68c4780a322c561bc566a63e3e7814": [{"Rank": 1, "Institutions": "New York University", "Lat": 40.729513, "Long": -73.996461, "City": "New York", "State": "New York", "State_Abbreviation_x": "NY", "id": 36, "Intl_Students": 24496, "States": "New York", "State_Abbreviation_y": "NY", "range": ">=50000"}, {"Rank": 3, "Institutions": "Columbia University", "Lat": 40.807536, "Long": -73.962573, "City": "New York", "State": "New York", "State_Abbreviation_x": "NY", "id": 36, "Intl_Students": 19001, "States": "New York", "State_Abbreviation_y": "NY", "range": ">=50000"}, {"Rank": 21, "Institutions": "Cornell University", "Lat": 42.4472, "Long": -76.4831, "City": "IthaCalifornia", "State": "New York", "State_Abbreviation_x": "NY", "id": 36, "Intl_Students": 8403, "States": "New York", "State_Abbreviation_y": "NY", "range": ">=50000"}, {"Rank": 23, "Institutions": "SUNew York University at Buffalo", "Lat": 43.0006, "Long": -78.7877, "City": "Buffalo", "State": "New York", "State_Abbreviation_x": "NY", "id": 36, "Intl_Students": 7696, "States": "New York", "State_Abbreviation_y": "NY", "range": ">=50000"}, {"Rank": 2, "Institutions": "Northeastern University - Boston", "Lat": 42.339806, "Long": -71.089171, "City": "Boston", "State": "Massachusetts", "State_Abbreviation_x": "MA", "id": 25, "Intl_Students": 20637, "States": "Massachusetts", "State_Abbreviation_y": "MA", "range": ">=50000"}, {"Rank": 7, "Institutions": "Boston University", "Lat": 42.3505, "Long": -71.1054, "City": "Boston", "State": "Massachusetts", "State_Abbreviation_x": "MA", "id": 25, "Intl_Students": 13281, "States": "Massachusetts", "State_Abbreviation_y": "MA", "range": ">=50000"}, {"Rank": 4, "Institutions": "Arizona State University - Campus Immersion", "Lat": 33.4167, "Long": -111.9346, "City": "Tempe", "State": "Arizona", "State_Abbreviation_x": "AZ", "id": 4, "Intl_Students": 17981, "States": "Arizona", "State_Abbreviation_y": "AZ", "range": "10000-49999"}, {"Rank": 5, "Institutions": "University of Southern California", "Lat": 34.0219, "Long": -118.4814, "City": "Los Angeles", "State": "California", "State_Abbreviation_x": "CA", "id": 6, "Intl_Students": 17264, "States": "California", "State_Abbreviation_y": "CA", "range": ">=50000"}, {"Rank": 9, "Institutions": "University of California - Berkeley", "Lat": 37.8719, "Long": -122.2585, "City": "Berkeley", "State": "California", "State_Abbreviation_x": "CA", "id": 6, "Intl_Students": 11719, "States": "California", "State_Abbreviation_y": "CA", "range": ">=50000"}, {"Rank": 10, "Institutions": "University of California - San Diego", "Lat": 32.8801, "Long": -117.234, "City": "La Jolla", "State": "California", "State_Abbreviation_x": "CA", "id": 6, "Intl_Students": 10431, "States": "California", "State_Abbreviation_y": "CA", "range": ">=50000"}, {"Rank": 13, "Institutions": "University of California - Los Angeles", "Lat": 34.0689, "Long": -118.4452, "City": "Los Angeles", "State": "California", "State_Abbreviation_x": "CA", "id": 6, "Intl_Students": 9725, "States": "California", "State_Abbreviation_y": "CA", "range": ">=50000"}, {"Rank": 18, "Institutions": "University of California - Irvine", "Lat": 33.6405, "Long": -117.8443, "City": "Irvine", "State": "California", "State_Abbreviation_x": "CA", "id": 6, "Intl_Students": 8984, "States": "California", "State_Abbreviation_y": "CA", "range": ">=50000"}, {"Rank": 25, "Institutions": "University of California - Davis", "Lat": 38.5382, "Long": -121.7617, "City": "Davis", "State": "California", "State_Abbreviation_x": "CA", "id": 6, "Intl_Students": 7621, "States": "California", "State_Abbreviation_y": "CA", "range": ">=50000"}, {"Rank": 6, "Institutions": "University of Illinois - Urbana-Champaign", "Lat": 40.101952, "Long": -88.227161, "City": "Champaign", "State": "Illinois", "State_Abbreviation_x": "IL", "id": 17, "Intl_Students": 14680, "States": "Illinois", "State_Abbreviation_y": "IL", "range": ">=50000"}, {"Rank": 8, "Institutions": "Purdue University - West Lafayette", "Lat": 40.423705, "Long": -86.921194, "City": "West Lafayette", "State": "Indiana", "State_Abbreviation_x": "IN", "id": 18, "Intl_Students": 11872, "States": "Indiana", "State_Abbreviation_y": "IN", "range": "10000-49999"}, {"Rank": 11, "Institutions": "University of Michigan - Ann Arbor", "Lat": 42.278, "Long": -83.7382, "City": "Ann Arbor", "State": "Michigan", "State_Abbreviation_x": "MI", "id": 26, "Intl_Students": 10411, "States": "Michigan", "State_Abbreviation_y": "MI", "range": "10000-49999"}, {"Rank": 12, "Institutions": "University of Washington", "Lat": 47.6553, "Long": -122.3035, "City": "Seattle", "State": "Washington", "State_Abbreviation_x": "WA", "id": 53, "Intl_Students": 10198, "States": "Washington", "State_Abbreviation_y": "WA", "range": "10000-49999"}, {"Rank": 14, "Institutions": "University of Texas - Dallas", "Lat": 32.9866, "Long": -96.7515, "City": "Richardson", "State": "Texas", "State_Abbreviation_x": "TX", "id": 48, "Intl_Students": 9582, "States": "Texas", "State_Abbreviation_y": "TX", "range": ">=50000"}, {"Rank": 22, "Institutions": "University of North Texas", "Lat": 33.2148, "Long": -97.1331, "City": "Denton", "State": "Texas", "State_Abbreviation_x": "TX", "id": 48, "Intl_Students": 8200, "States": "Texas", "State_Abbreviation_y": "TX", "range": ">=50000"}, {"Rank": 15, "Institutions": "Johns Hopkins University", "Lat": 39.3308, "Long": -76.6205, "City": "Baltimore", "State": "Maryland", "State_Abbreviation_x": "MD", "id": 24, "Intl_Students": 9322, "States": "Maryland", "State_Abbreviation_y": "MD", "range": "10000-49999"}, {"Rank": 16, "Institutions": "Pennsylvania State University - University Park", "Lat": 40.7982, "Long": -77.8599, "City": "University Park", "State": "Pennsylvania", "State_Abbreviation_x": "PA", "id": 42, "Intl_Students": 9161, "States": "Pennsylvania", "State_Abbreviation_y": "PA", "range": "10000-49999"}, {"Rank": 17, "Institutions": "Carnegie Mellon University", "Lat": 40.4432, "Long": -79.9435, "City": "Pittsburgh", "State": "Pennsylvania", "State_Abbreviation_x": "PA", "id": 42, "Intl_Students": 9009, "States": "Pennsylvania", "State_Abbreviation_y": "PA", "range": "10000-49999"}, {"Rank": 19, "Institutions": "University of Pennsylvania", "Lat": 39.9526, "Long": -75.1652, "City": "Philadelphia", "State": "Pennsylvania", "State_Abbreviation_x": "PA", "id": 42, "Intl_Students": 8614, "States": "Pennsylvania", "State_Abbreviation_y": "PA", "range": "10000-49999"}, {"Rank": 20, "Institutions": "University of Wisconsin - Madison", "Lat": 43.0751, "Long": -89.4042, "City": "Massachusettsdison", "State": "Wisconsin", "State_Abbreviation_x": "WI", "id": 55, "Intl_Students": 8567, "States": "Wisconsin", "State_Abbreviation_y": "WI", "range": "10000-49999"}, {"Rank": 24, "Institutions": "Georgia Institute of Technology", "Lat": 33.7756, "Long": -84.3963, "City": "Atlanta", "State": "Georgia", "State_Abbreviation_x": "GA", "id": 13, "Intl_Students": 7671, "States": "Georgia", "State_Abbreviation_y": "GA", "range": "10000-49999"}]}}